{
  "createdAt": "2025-08-25T14:18:51.268Z",
  "count": 17,
  "markers": [
    {
      "id": "m2",
      "label": "Star Wars: Rise of the Resistance",
      "type": "ride",
      "lat": 33.81389465991132,
      "lng": -117.92309537529947
    },
    {
      "id": "m3",
      "label": "ogas cantina",
      "type": "food",
      "lat": 33.814673521352645,
      "lng": -117.92096838355067
    },
    {
      "id": "m4",
      "label": "Millennium Falcon: Smugglers Run",
      "type": "ride",
      "lat": 33.81488634205791,
      "lng": -117.92135596275331
    },
    {
      "id": "m5",
      "label": "Tiana's Bayou Adventure",
      "type": "ride",
      "lat": 33.812232173712815,
      "lng": -117.92206674814227
    },
    {
      "id": "m6",
      "label": "Big Thunder Mountain Railroad",
      "type": "ride",
      "lat": 33.81246951453716,
      "lng": -117.92034208774568
    },
    {
      "id": "m7",
      "label": "Pirates of the Caribbean",
      "type": "ride",
      "lat": 33.811384204168114,
      "lng": -117.92080745100978
    },
    {
      "id": "m8",
      "label": "Space mountain",
      "type": "ride",
      "lat": 33.81137083270192,
      "lng": -117.91730448603633
    },
    {
      "id": "m9",
      "label": "Peter Pan's Flight",
      "type": "ride",
      "lat": 33.81330298789638,
      "lng": -117.91885346174242
    },
    {
      "id": "m10",
      "label": "Matterhorn Bobsleds",
      "type": "ride",
      "lat": 33.813393243214,
      "lng": -117.91761830449107
    },
    {
      "id": "m11",
      "label": "Soarin' Around the World",
      "type": "ride",
      "lat": 33.80816050604786,
      "lng": -117.91998803615571
    },
    {
      "id": "m12",
      "label": "Guardians of the Galaxy - Mission: BREAKOUT!",
      "type": "ride",
      "lat": 33.80686341522581,
      "lng": -117.91717171669008
    },
    {
      "id": "m13",
      "label": "Grizzly river run",
      "type": "ride",
      "lat": 33.807425044593444,
      "lng": -117.92077928781511
    },
    {
      "id": "m14",
      "label": "Incredecoaster",
      "type": "ride",
      "lat": 33.80457228580385,
      "lng": -117.92057543992998
    },
    {
      "id": "m15",
      "label": "Pym test kitchen",
      "type": "food",
      "lat": 33.80673637950048,
      "lng": -117.91770681738856
    },
    {
      "id": "m16",
      "label": "Terran Treats",
      "type": "food",
      "lat": 33.807105228322136,
      "lng": -117.91701614856721
    },
    {
      "id": "m17",
      "label": "Alien Pizza planet",
      "type": "food",
      "lat": 33.811672804470476,
      "lng": -117.91691556572916
    },
    {
      "id": "m18",
      "label": "Churros",
      "type": "food",
      "lat": 33.81222325967195,
      "lng": -117.92037695355292
    }
  ]
}
